[
  {
    "properties": {
      "name": "Total Solution GmbH",
      "address": "Am Wasser 4",
      "address2": null,
      "postal": "8430",
      "city": "Leibnitz",
      "country": "Austria",
      "region": "Europe",
      "phone": "+43 345271434",
      "email": "office@total-solution.at",
      "website": "http://www.totalsolution.at",
      "lng": 1.553528,
      "lat": 46.794161
    },
    "geometry": {
      "type": "Point",
      "coordinates": [
        15535288,
        467941617
      ]
    }
  },
  {
    "properties": {
      "name": "Berma Bru nv",
      "address": "Maurice Herbettelaan 63",
      "address2": null,
      "postal": "1070",
      "city": "Brussel",
      "country": "Belgium",
      "region": "Europe",
      "phone": "+32 (0)25295050",
      "email": "info@bermabru.be",
      "website": "http://www.bermabru.be",
      "lng": 4.309792,
      "lat": 50.844699
    },
    "geometry": {
      "type": "Point",
      "coordinates": [
        43097922,
        508446995
      ]
    }
  },
  {
    "properties": {
      "name": "Deceuninck deforce",
      "address": "Lodewijk de Raetlaan 28",
      "address2": null,
      "postal": "8870",
      "city": "Kachtem",
      "country": "Belgium",
      "region": "Europe",
      "phone": "+32 (0)51 22 41 11",
      "email": "info@dcdf.be",
      "website": "http://www.deceuninck-deforce.be/site/",
      "lng": 3.206555,
      "lat": 50.928182
    },
    "geometry": {
      "type": "Point",
      "coordinates": [
        32065558,
        509281823
      ]
    }
  },
  {
    "properties": {
      "name": "Desco nv",
      "address": "Bijkhoevelaan 2-4",
      "address2": null,
      "postal": "2110",
      "city": "Wijnegem",
      "country": "Belgium",
      "region": "Europe",
      "phone": "+32 (0)33263333",
      "email": "info@desco.be",
      "website": "http://www.desco.be",
      "lng": 4.492043,
      "lat": 51.235307
    },
    "geometry": {
      "type": "Point",
      "coordinates": [
        44920432,
        512353077
      ]
    }
  },
  {
    "properties": {
      "name": "Facq nv",
      "address": "Leuvensesteenweg 536",
      "address2": null,
      "postal": "1930",
      "city": "Zaventem",
      "country": "Belgium",
      "region": "Europe",
      "phone": "+32 (0)2 7198611",
      "email": "info@facq.be",
      "website": "http://www.facq.be",
      "lng": 4.490701,
      "lat": 50.874531
    },
    "geometry": {
      "type": "Point",
      "coordinates": [
        44907011,
        508745316
      ]
    }
  },
  {
    "properties": {
      "name": "Het tafeltje rond bvba",
      "address": "Landwaartslaan 15-17",
      "address2": null,
      "postal": "3600",
      "city": "Genk",
      "country": "Belgium",
      "region": "Europe",
      "phone": "+32 (0)89352526",
      "email": "info@hettafeltjerond.be",
      "website": "http://www.hettafeltjerond.be",
      "lng": 5.450094,
      "lat": 50.961517
    },
    "geometry": {
      "type": "Point",
      "coordinates": [
        54500942,
        509615177
      ]
    }
  },
  {
    "properties": {
      "name": "Hobroco nv",
      "address": "Iepersestraat 93",
      "address2": null,
      "postal": "8500",
      "city": "Kortrijk",
      "country": "Belgium",
      "region": "Europe",
      "phone": "+32 (0)56370275",
      "email": "info@hobroco.be",
      "website": "http://www.pro-at-work.be",
      "lng": 3.263528,
      "lat": 50.842765
    },
    "geometry": {
      "type": "Point",
      "coordinates": [
        32635286,
        508427658
      ]
    }
  },
  {
    "properties": {
      "name": "Holvoet design bvba",
      "address": "Oudenaardsesteenweg 269",
      "address2": null,
      "postal": "8500",
      "city": "Kortrijk",
      "country": "Belgium",
      "region": "Europe",
      "phone": "+32 (0)56 224727",
      "email": "info@holvoet-design.be",
      "website": "http://www.holvoet-design.be",
      "lng": 3.289245,
      "lat": 50.820866
    },
    "geometry": {
      "type": "Point",
      "coordinates": [
        32892454,
        50820866
      ]
    }
  },
  {
    "properties": {
      "name": "Ijzerwaren Vertommen",
      "address": "Gentsebaan 64",
      "address2": null,
      "postal": "9100",
      "city": "Sint-Niklaas",
      "country": "Belgium",
      "region": "Europe",
      "phone": "32 3/7762003",
      "email": "info@vertommen.be",
      "website": "http://www.vertommen.be",
      "lng": 4.448427,
      "lat": 50.473729
    },
    "geometry": {
      "type": "Point",
      "coordinates": [
        44484278,
        504737294
      ]
    }
  },
  {
    "properties": {
      "name": "Lambrechts nv",
      "address": "Taunusweg 8",
      "address2": null,
      "postal": "3600",
      "city": "Genk",
      "country": "Belgium",
      "region": "Europe",
      "phone": "+32 (0)89620320",
      "email": "info@lambrechtssan-cv.be",
      "website": "http://www.lambrechts.eu",
      "lng": 5.501426,
      "lat": 50.91575
    },
    "geometry": {
      "type": "Point",
      "coordinates": [
        55014267,
        509157503
      ]
    }
  },
  {
    "properties": {
      "name": "Lecot nv",
      "address": "Vier Linden 7",
      "address2": null,
      "postal": "8501",
      "city": "Heule",
      "country": "Belgium",
      "region": "Europe",
      "phone": "+32 (0)56364511",
      "email": "info@lecot.be",
      "website": "http://www.lecot.be",
      "lng": 3.24537,
      "lat": 50.850173
    },
    "geometry": {
      "type": "Point",
      "coordinates": [
        32453701,
        508501731
      ]
    }
  },
  {
    "properties": {
      "name": "Lecot Raedschelders nv",
      "address": "Renkoven",
      "address2": null,
      "postal": "3680",
      "city": "Maaseik",
      "country": "Belgium",
      "region": "Europe",
      "phone": "+32 (0)89564972",
      "email": "maaseik@rlecot.be",
      "website": "http://www.raedschelders.be",
      "lng": 5.800085,
      "lat": 51.100915
    },
    "geometry": {
      "type": "Point",
      "coordinates": [
        5800085,
        511009156
      ]
    }
  },
  {
    "properties": {
      "name": "Lecot Antwerpen",
      "address": "Slachthuislaan 68A",
      "address2": null,
      "postal": "2060",
      "city": "Berchem",
      "country": "Belgium",
      "region": "Europe",
      "phone": "32  3 3604496",
      "email": "antwerpen@lecot.be",
      "website": "http://www.lecot-raedschelders.com",
      "lng": 5.123219,
      "lat": 44.32969
    },
    "geometry": {
      "type": "Point",
      "coordinates": [
        51232190,
        4432969
      ]
    }
  },
  {
    "properties": {
      "name": "Lerou IJzerwaren nv",
      "address": "Monnikenwerve 131",
      "address2": null,
      "postal": "8000",
      "city": "Brugge",
      "country": "Belgium",
      "region": "Europe",
      "phone": "+32 (0)50317442",
      "email": "info@lerou.com",
      "website": "http://www.lerou.com",
      "lng": 3.203272,
      "lat": 51.247648
    },
    "geometry": {
      "type": "Point",
      "coordinates": [
        32032721,
        512476487
      ]
    }
  },
  {
    "properties": {
      "name": "Modern Comfort Home sa",
      "address": "Rue de la Station 66",
      "address2": null,
      "postal": "1410",
      "city": "Waterloo",
      "country": "Belgium",
      "region": "Europe",
      "phone": "+32 (0)23541112",
      "email": "mch@mch-com.be",
      "website": "http://www.mch-com.be",
      "lng": 4.393605,
      "lat": 50.71736
    },
    "geometry": {
      "type": "Point",
      "coordinates": [
        43936056,
        507173609
      ]
    }
  },
  {
    "properties": {
      "name": "Vancanneyt nv",
      "address": "Spoelewielenlaan  8",
      "address2": null,
      "postal": "8860",
      "city": "Lendelede",
      "country": "Belgium",
      "region": "Europe",
      "phone": "32 51 311396",
      "email": "info@vancanneyt.be",
      "website": "http://www.proatwork.be",
      "lng": 3.240214,
      "lat": 50.8908
    },
    "geometry": {
      "type": "Point",
      "coordinates": [
        3240214,
        50890807
      ]
    }
  },
  {
    "properties": {
      "name": "Novia bvba",
      "address": "Huidevettersstraat 50",
      "address2": null,
      "postal": "2000",
      "city": "Antwerpen",
      "country": "Belgium",
      "region": "Europe",
      "phone": "+32 (0)3-2314.36",
      "email": "info@novia.be",
      "website": "http://www.novia.be",
      "lng": 4.405098,
      "lat": 51.216371
    },
    "geometry": {
      "type": "Point",
      "coordinates": [
        44050981,
        512163719
      ]
    }
  },
  {
    "properties": {
      "name": "Novia Due bvba",
      "address": "Chaussee de Waterloosteenweg 809",
      "address2": null,
      "postal": "1180",
      "city": "Brussel",
      "country": "Belgium",
      "region": "Europe",
      "phone": "+32 (0)23444435",
      "email": "info@noviadue.com",
      "website": "http://www.noviadue.com",
      "lng": 4.355919,
      "lat": 50.79049
    },
    "geometry": {
      "type": "Point",
      "coordinates": [
        43559193,
        507904904
      ]
    }
  },
  {
    "properties": {
      "name": "R. Janssen & Zn nv",
      "address": "Kastelein 73",
      "address2": null,
      "postal": "2300",
      "city": "Turnhout",
      "country": "Belgium",
      "region": "Europe",
      "phone": "+32 (0)14 416926",
      "email": "info@janssenr.be",
      "website": "http://www.janssenr.be",
      "lng": 4.944526,
      "lat": 51.340623
    },
    "geometry": {
      "type": "Point",
      "coordinates": [
        49445265,
        513406231
      ]
    }
  },
  {
    "properties": {
      "name": "Santens Dhondt nv",
      "address": "Dirk Martensstraat 18",
      "address2": null,
      "postal": "8200",
      "city": "Brugge, St.-Andries",
      "country": "Belgium",
      "region": "Europe",
      "phone": "32(0)50727070",
      "email": "info@santensdhondt.be",
      "website": "http://www.santensmetaalwaren.be",
      "lng": 3.204041,
      "lat": 51.200178
    },
    "geometry": {
      "type": "Point",
      "coordinates": [
        32040414,
        512001788
      ]
    }
  },
  {
    "properties": {
      "name": "Santens Metaalwaren nv",
      "address": "Nijverheidskaai 3",
      "address2": null,
      "postal": "9040",
      "city": "Gent",
      "country": "Belgium",
      "region": "Europe",
      "phone": "+32 92188616",
      "email": "info@santens.gent.be",
      "website": "http://www.santensmetaalwaren.be",
      "lng": 3.757548,
      "lat": 51.047584
    },
    "geometry": {
      "type": "Point",
      "coordinates": [
        37575487,
        510475849
      ]
    }
  },
  {
    "properties": {
      "name": "Sax Sanitair",
      "address": "Autostradeweg 3",
      "address2": null,
      "postal": "9090",
      "city": "Melle",
      "country": "Belgium",
      "region": "Europe",
      "phone": "+32 (0)9 2524400",
      "email": "info@sax-sanitair.be",
      "website": "http://www.sax-sanitair.be",
      "lng": 3.794829,
      "lat": 50.991446
    },
    "geometry": {
      "type": "Point",
      "coordinates": [
        37948296,
        50991446
      ]
    }
  },
  {
    "properties": {
      "name": "Schrauwen nv",
      "address": "Kapelsesteenweg 80",
      "address2": null,
      "postal": "2930",
      "city": "Brasschaat",
      "country": "Belgium",
      "region": "Europe",
      "phone": "+32 (0)3 645 2479",
      "email": "brasschaat@schrauwen.be",
      "website": "http://www.schrauwen.be",
      "lng": 4.456623,
      "lat": 51.274982
    },
    "geometry": {
      "type": "Point",
      "coordinates": [
        44566232,
        512749827
      ]
    }
  },
  {
    "properties": {
      "name": "Th Meurer A.G.",
      "address": "Aachenenrstrasse 26",
      "address2": null,
      "postal": "4780",
      "city": "Sant Vith",
      "country": "Belgium",
      "region": "Europe",
      "phone": "+32 (0)80 280500",
      "email": "info@meurer.be",
      "website": "http://www.meurer.be",
      "lng": 6.136083,
      "lat": 50.293605
    },
    "geometry": {
      "type": "Point",
      "coordinates": [
        61360833,
        502936057
      ]
    }
  },
  {
    "properties": {
      "name": "Van den Broeck-Prolians nv",
      "address": "Atealaan 35",
      "address2": null,
      "postal": "2270",
      "city": "Herenthout",
      "country": "Belgium",
      "region": "Europe",
      "phone": "+32 (0)14259500",
      "email": "info@vdb-prolians.be",
      "website": "http://www.vdb-prolians.be",
      "lng": 4.796015,
      "lat": 51.158349
    },
    "geometry": {
      "type": "Point",
      "coordinates": [
        47960159,
        511583499
      ]
    }
  },
  {
    "properties": {
      "name": "Van Eijck",
      "address": "Tiensestraat 15",
      "address2": null,
      "postal": "3000",
      "city": "Leuven",
      "country": "Belgium",
      "region": "Europe",
      "phone": "+32 (0)16222020",
      "email": "info@van-eyck.be",
      "website": "http://www.van-eyck.be",
      "lng": 4.703551,
      "lat": 50.87837
    },
    "geometry": {
      "type": "Point",
      "coordinates": [
        47035515,
        508783706
      ]
    }
  },
  {
    "properties": {
      "name": "Van Langendonck bvba",
      "address": "Grootlosestraat 59",
      "address2": null,
      "postal": "3128",
      "city": "Tremelo",
      "country": "Belgium",
      "region": "Europe",
      "phone": "+32 (0)16602061",
      "email": "sales@vanlangendonck.com",
      "website": "http://www.vanlangendonck.com",
      "lng": 4.731058,
      "lat": 51.016198
    },
    "geometry": {
      "type": "Point",
      "coordinates": [
        4731058,
        510161982
      ]
    }
  },
  {
    "properties": {
      "name": "Van Marcke nv",
      "address": "Weggevoerdenlaan 5",
      "address2": null,
      "postal": "8500",
      "city": "Kortrijk",
      "country": "Belgium",
      "region": "Europe",
      "phone": "+32 (0)56 237511",
      "email": "info@vanmarcke.be",
      "website": "http://www.vanmarcke.be",
      "lng": 3.252991,
      "lat": 50.819431
    },
    "geometry": {
      "type": "Point",
      "coordinates": [
        32529914,
        508194313
      ]
    }
  },
  {
    "properties": {
      "name": "Vanden Bergh sa",
      "address": "Rue de la posterie 21",
      "address2": null,
      "postal": "5030",
      "city": "Gembloux",
      "country": "Belgium",
      "region": "Europe",
      "phone": "+32 (0)81615458",
      "email": "info@vandenbergh.be",
      "website": "http://www.vandenbergh.be",
      "lng": 4.705754,
      "lat": 50.576711
    },
    "geometry": {
      "type": "Point",
      "coordinates": [
        4705754,
        50576711
      ]
    }
  },
  {
    "properties": {
      "name": "VBH Belgium nv",
      "address": "Koolmijnlaan 99",
      "address2": null,
      "postal": "3580",
      "city": "Beringen",
      "country": "Belgium",
      "region": "Europe",
      "phone": "+32 (0)11458350",
      "email": "info@vbh.be",
      "website": "http://www.vbh.be",
      "lng": 5.222869,
      "lat": 51.0555
    },
    "geometry": {
      "type": "Point",
      "coordinates": [
        5222869,
        510555008
      ]
    }
  },
  {
    "properties": {
      "name": "BONO-HS,s.r.o.",
      "address": "Volynska 446/2",
      "address2": null,
      "postal": "386 01",
      "city": "Strakonice",
      "country": "Czech Republic",
      "region": "Europe",
      "phone": "+420 241 723 821 4",
      "email": null,
      "website": null,
      "lng": 1.391176,
      "lat": 49.252097
    },
    "geometry": {
      "type": "Point",
      "coordinates": [
        139117615,
        492520978
      ]
    }
  },
  {
    "properties": {
      "name": "Vector International spol sro",
      "address": "Ceskoslovenské armády 702 ",
      "address2": null,
      "postal": "25301",
      "city": "Hostivice u Prahy",
      "country": "Czech Republic",
      "region": "Europe",
      "phone": "+420 220180476",
      "email": null,
      "website": null,
      "lng": 1.425039,
      "lat": 50.082337
    },
    "geometry": {
      "type": "Point",
      "coordinates": [
        142503988,
        500823372
      ]
    }
  },
  {
    "properties": {
      "name": "Geex SAS",
      "address": "Avenue Louis Blériot 12",
      "address2": null,
      "postal": "95740",
      "city": "Frépillon",
      "country": "France",
      "region": "Europe",
      "phone": "+33 (0)1 41832400",
      "email": "information@euxos.com",
      "website": "http://www.euxos.com",
      "lng": 2.452276,
      "lat": 48.894928
    },
    "geometry": {
      "type": "Point",
      "coordinates": [
        24522763,
        488949283
      ]
    }
  },
  {
    "properties": {
      "name": "EM Design Handel",
      "address": "SchÃ¶nbergstrasse 24",
      "address2": null,
      "postal": "73760",
      "city": "Ostfildern",
      "country": "Germany",
      "region": "Europe",
      "phone": "0711-34218605",
      "email": "info@emdesignhandel.de",
      "website": "http://www.emdesignhandel.de",
      "lng": 9.2277,
      "lat": 48.72422
    },
    "geometry": {
      "type": "Point",
      "coordinates": [
        92277,
        4872422
      ]
    }
  },
  {
    "properties": {
      "name": "d line Italy",
      "address": "Viale Verdi 55a",
      "address2": null,
      "postal": "23807",
      "city": "Merate",
      "country": "Italy",
      "region": "Europe",
      "phone": "+39 392 1316964",
      "email": "sg@dline.com",
      "website": "www.dline.com",
      "lng": 9.41009,
      "lat": 45.696572
    },
    "geometry": {
      "type": "Point",
      "coordinates": [
        941009,
        45696572
      ]
    }
  },
  {
    "properties": {
      "name": "Comptoir des Fers et Métaux sa",
      "address": "5a Rue Guillaume J. Kroll",
      "address2": null,
      "postal": "1022",
      "city": "Luxembourg",
      "country": "Luxembourg",
      "region": "Europe",
      "phone": "+352 (0)4995-1",
      "email": "info@cfm.lu",
      "website": "http://www.cfm.lu",
      "lng": 6.112685,
      "lat": 49.581714
    },
    "geometry": {
      "type": "Point",
      "coordinates": [
        61126857,
        495817146
      ]
    }
  },
  {
    "properties": {
      "name": "Gilbert sàrl",
      "address": "Z.I. Z.a.r.e. ilon est",
      "address2": null,
      "postal": "4385",
      "city": "Ehlerange",
      "country": "Luxembourg",
      "region": "Europe",
      "phone": "+352 (0)401701",
      "email": "info@gilbert.lu",
      "website": "http://www.gilbert.lu",
      "lng": 5.96465,
      "lat": 49.52313
    },
    "geometry": {
      "type": "Point",
      "coordinates": [
        596465,
        4952313
      ]
    }
  },
  {
    "properties": {
      "name": "Neuberg sa",
      "address": "Rue Jacques Stas 39",
      "address2": null,
      "postal": "2549",
      "city": "Luxembourg-Gasperich",
      "country": "Luxembourg",
      "region": "Europe",
      "phone": "+352 (0)401401",
      "email": "info@neuberg.lu",
      "website": "http://www.neuberg.lu",
      "lng": 6.128582,
      "lat": 49.592397
    },
    "geometry": {
      "type": "Point",
      "coordinates": [
        6128582,
        495923974
      ]
    }
  },
  {
    "properties": {
      "name": "Core",
      "address": "Upper valley road",
      "address2": null,
      "postal": "BKR 9085",
      "city": "Birkirkara",
      "country": "Malta",
      "region": "Europe",
      "phone": "+356 21443449",
      "email": null,
      "website": "www.core.com.mt",
      "lng": 14.4625,
      "lat": 35.896666
    },
    "geometry": {
      "type": "Point",
      "coordinates": [
        144625,
        358966667
      ]
    }
  },
  {
    "properties": {
      "name": "d line NL - Office",
      "address": "Magazijnweg 12 B",
      "address2": null,
      "postal": "2404 CE",
      "city": "Alphen aan de Rijn",
      "country": "Netherlands",
      "region": "Europe",
      "phone": "0343-480033",
      "email": "jeroen@dlinenederland.nl",
      "website": "http://www.dlinenederland.nl",
      "lng": 4.9755775,
      "lat": 52.3620204
    },
    "geometry": {
      "type": "Point",
      "coordinates": [
        4.9755775,
        52.3620204
      ]
    }
  },
  {
    "properties": {
      "name": "d line NL Showroom",
      "address": "Pedro de Medinalaan 89-91",
      "address2": null,
      "postal": "1086 XP",
      "city": "Amsterdam",
      "country": "Netherlands",
      "region": "Europe",
      "phone": "0343-480033",
      "email": "jeroen@dlinenederland.nl",
      "website": "http://www.dlinenederland.nl",
      "lng": 4.9755775,
      "lat": 52.3620204
    },
    "geometry": {
      "type": "Point",
      "coordinates": [
        4.9755775,
        52.3620204
      ]
    }
  },
  {
    "properties": {
      "name": "aXim line Miroslaw Laurman",
      "address": "ul. Miodowa 7",
      "address2": null,
      "postal": "72-603",
      "city": "Swinoujscie",
      "country": "Poland",
      "region": "Europe",
      "phone": "+48 601480047",
      "email": "aximline@vp.pl",
      "website": null,
      "lng": 14.30245,
      "lat": 53.852636
    },
    "geometry": {
      "type": "Point",
      "coordinates": [
        14302456,
        53852636
      ]
    }
  },
  {
    "properties": {
      "name": "Carvalho, Batista & Ca, Sa",
      "address": "Rua Do Almada 79-89",
      "address2": "Apartado 4784",
      "postal": "4013-001",
      "city": "Porto",
      "country": "Portugal",
      "region": "Europe",
      "phone": "+35 1223392120",
      "email": null,
      "website": "http://www.carvalhobatista.pt",
      "lng": -8.6239254,
      "lat": 41.156689
    },
    "geometry": {
      "type": "Point",
      "coordinates": [
        -86239254,
        411566892
      ]
    }
  },
  {
    "properties": {
      "name": "Arcon",
      "address": "Rosselló, 21",
      "address2": null,
      "postal": "8029",
      "city": "Barcelona",
      "country": "Spain",
      "region": "Europe",
      "phone": "+34 936002002",
      "email": null,
      "website": "http://www.arcon.es",
      "lng": 2.14357,
      "lat": 41.383087
    },
    "geometry": {
      "type": "Point",
      "coordinates": [
        21435704,
        413830874
      ]
    }
  },
  {
    "properties": {
      "name": "Beschläge U.S.W. AG",
      "address": "Böhnirainstrasse 16",
      "address2": null,
      "postal": "8800",
      "city": "Thalwil",
      "country": "Switzerland",
      "region": "Europe",
      "phone": "+41 447229000",
      "email": "info@usw.ch",
      "website": "http://www.usw.ch",
      "lng": 8.560252,
      "lat": 47.291334
    },
    "geometry": {
      "type": "Point",
      "coordinates": [
        8560252,
        47291334
      ]
    }
  },
  {
    "properties": {
      "name": "Expo SA",
      "address": "20  Nimfeou St",
      "address2": null,
      "postal": "11528",
      "city": "Ilissa",
      "country": "Greece",
      "region": "Europe",
      "phone": "+30 2107485560",
      "email": null,
      "website": "http://www.expo.gr",
      "lng": 23.757946,
      "lat": 37.97766
    },
    "geometry": {
      "type": "Point",
      "coordinates": [
        37977667,
        23757946
      ]
    }
  },
  {
    "properties": {
      "name": "Diseño Iconico Sl",
      "address": "C/Turo de la penya 42 Avinguda Sant Hilari amb",
      "address2": null,
      "postal": "E08440",
      "city": "Cardedeu",
      "country": "Spain",
      "region": "Europe",
      "phone": "0034 972 10 55 35",
      "email": null,
      "website": "https://www.iconico.es/",
      "lng": null,
      "lat": null
    },
    "geometry": {
      "type": "Point",
      "coordinates": [
        0,
        0
      ]
    }
  }
]
